$GPRMC,133049.000,A,5130.9364,N,00729.3106,E,0.2,0.0,130506,0.0,W*72
$GPRMC,133050.000,A,5130.9377,N,00729.3093,E,0.2,0.0,130506,0.0,W*75
$GPRMC,133051.000,A,5130.9386,N,00729.3084,E,0.2,0.0,130506,0.0,W*7C
$GPRMC,133052.000,A,5130.9393,N,00729.3076,E,0.2,0.0,130506,0.0,W*76
$GPRMC,133053.000,A,5130.9399,N,00729.3069,E,0.2,0.0,130506,0.0,W*73
$GPRMC,133054.000,A,5130.9405,N,00729.3062,E,0.1,0.0,130506,0.0,W*7E
$GPRMC,133055.000,A,5130.9408,N,00729.3057,E,0.1,0.0,130506,0.0,W*74
$GPRMC,133056.000,A,5130.9412,N,00729.3052,E,0.1,0.0,130506,0.0,W*79
$GPRMC,133057.000,A,5130.9415,N,00729.3048,E,0.1,0.0,130506,0.0,W*74
$GPRMC,133058.000,A,5130.9418,N,00729.3044,E,0.1,0.0,130506,0.0,W*7A
$GPRMC,133059.000,A,5130.9419,N,00729.3041,E,0.1,0.0,130506,0.0,W*7F
$GPRMC,133100.000,A,5130.9420,N,00729.3039,E,0.1,0.0,130506,0.0,W*77
$GPRMC,133101.000,A,5130.9422,N,00729.3036,E,0.1,0.0,130506,0.0,W*7B
$GPRMC,133102.000,A,5130.9423,N,00729.3033,E,0.1,0.0,130506,0.0,W*7C
$GPRMC,133103.000,A,5130.9426,N,00729.3030,E,0.1,0.0,130506,0.0,W*7B
$GPRMC,133104.000,A,5130.9428,N,00729.3028,E,0.1,0.0,130506,0.0,W*7B
$GPRMC,133105.000,A,5130.9430,N,00729.3025,E,0.1,0.0,130506,0.0,W*7E
$GPRMC,133106.000,A,5130.9431,N,00729.3023,E,0.1,0.0,130506,0.0,W*7A
$GPRMC,133107.000,A,5130.9433,N,00729.3020,E,0.1,0.0,130506,0.0,W*7A
$GPRMC,133108.000,A,5130.9436,N,00729.3018,E,0.1,0.0,130506,0.0,W*7B
$GPRMC,133109.000,A,5130.9438,N,00729.3015,E,0.1,0.0,130506,0.0,W*79
$GPRMC,133110.000,A,5130.9439,N,00729.3013,E,0.1,0.0,130506,0.0,W*76
$GPRMC,133111.000,A,5130.9440,N,00729.3011,E,0.1,0.0,130506,0.0,W*7B
$GPRMC,133112.000,A,5130.9441,N,00729.3010,E,0.1,0.0,130506,0.0,W*78
$GPRMC,133113.000,A,5130.9442,N,00729.3008,E,0.1,0.0,130506,0.0,W*73
$GPRMC,133114.000,A,5130.9442,N,00729.3007,E,0.1,0.0,130506,0.0,W*7B
$GPRMC,133115.000,A,5130.9443,N,00729.3006,E,0.1,0.0,130506,0.0,W*7A
$GPRMC,133116.000,A,5130.9442,N,00729.3006,E,0.1,0.0,130506,0.0,W*78
$GPRMC,133117.000,A,5130.9443,N,00729.3005,E,0.1,0.0,130506,0.0,W*7B
$GPRMC,133118.000,A,5130.9443,N,00729.3004,E,0.1,0.0,130506,0.0,W*75
$GPRMC,133119.000,A,5130.9443,N,00729.3003,E,0.0,0.0,130506,0.0,W*72
$GPRMC,133120.000,A,5130.9443,N,00729.3002,E,0.0,0.0,130506,0.0,W*79
$GPRMC,133121.000,A,5130.9443,N,00729.3001,E,0.1,0.0,130506,0.0,W*7A
$GPRMC,133122.000,A,5130.9443,N,00729.3000,E,0.1,0.0,130506,0.0,W*78
$GPRMC,133123.000,A,5130.9443,N,00729.2999,E,0.1,0.0,130506,0.0,W*71
$GPRMC,133124.000,A,5130.9443,N,00729.2999,E,0.1,0.0,130506,0.0,W*76
$GPRMC,133125.000,A,5130.9443,N,00729.2998,E,0.1,0.0,130506,0.0,W*76
$GPRMC,133126.000,A,5130.9443,N,00729.2997,E,0.1,0.0,130506,0.0,W*7A
$GPRMC,133127.000,A,5130.9442,N,00729.2997,E,0.1,0.0,130506,0.0,W*7A
$GPRMC,133128.000,A,5130.9442,N,00729.2997,E,0.1,0.0,130506,0.0,W*75
$GPRMC,133129.000,A,5130.9442,N,00729.2997,E,0.1,0.0,130506,0.0,W*74
$GPRMC,133130.000,A,5130.9442,N,00729.2997,E,0.1,0.0,130506,0.0,W*7C
$GPRMC,133131.000,A,5130.9441,N,00729.2997,E,0.1,0.0,130506,0.0,W*7E
$GPRMC,133132.000,A,5130.9441,N,00729.2997,E,0.1,0.0,130506,0.0,W*7D
$GPRMC,133133.000,A,5130.9441,N,00729.2997,E,0.1,0.0,130506,0.0,W*7C
$GPRMC,133134.000,A,5130.9440,N,00729.2997,E,0.1,0.0,130506,0.0,W*7A
$GPRMC,133135.000,A,5130.9440,N,00729.2996,E,0.1,0.0,130506,0.0,W*7A
$GPRMC,133136.000,A,5130.9440,N,00729.2997,E,0.1,0.0,130506,0.0,W*78
$GPRMC,133137.000,A,5130.9439,N,00729.2997,E,0.1,0.0,130506,0.0,W*77
$GPRMC,133138.000,A,5130.9438,N,00729.2997,E,0.1,0.0,130506,0.0,W*79
$GPRMC,133139.000,A,5130.9438,N,00729.2997,E,0.1,0.0,130506,0.0,W*78
$GPRMC,133140.000,A,5130.9438,N,00729.2997,E,0.1,0.0,130506,0.0,W*76
$GPRMC,133141.000,A,5130.9437,N,00729.2997,E,0.0,0.0,130506,0.0,W*79
$GPRMC,133142.000,A,5130.9437,N,00729.2997,E,0.1,0.0,130506,0.0,W*7B
$GPRMC,133143.000,A,5130.9437,N,00729.2997,E,0.1,0.0,130506,0.0,W*7A
$GPRMC,133144.000,A,5130.9436,N,00729.2997,E,0.1,0.0,130506,0.0,W*7C
$GPRMC,133145.000,A,5130.9434,N,00729.2996,E,0.5,245.2,130506,0.0,W*7B
$GPRMC,133146.000,A,5130.9431,N,00729.2989,E,1.6,240.5,130506,0.0,W*73
$GPRMC,133147.000,A,5130.9431,N,00729.2988,E,0.6,244.9,130506,0.0,W*7A
$GPRMC,133148.000,A,5130.9433,N,00729.2988,E,0.2,0.0,130506,0.0,W*78
$GPRMC,133149.000,A,5130.9432,N,00729.2990,E,0.2,0.0,130506,0.0,W*71
$GPRMC,133150.000,A,5130.9432,N,00729.2989,E,0.1,0.0,130506,0.0,W*72
$GPRMC,133151.000,A,5130.9431,N,00729.2989,E,0.1,0.0,130506,0.0,W*70
$GPRMC,133152.000,A,5130.9431,N,00729.2990,E,0.2,0.0,130506,0.0,W*78
$GPRMC,133153.000,A,5130.9430,N,00729.2996,E,0.9,104.9,130506,0.0,W*79
$GPRMC,133154.000,A,5130.9429,N,00729.3001,E,1.0,104.9,130506,0.0,W*78
$GPRMC,133155.000,A,5130.9428,N,00729.3009,E,1.6,111.3,130506,0.0,W*78
$GPRMC,133156.000,A,5130.9428,N,00729.3025,E,2.9,93.5,130506,0.0,W*44
$GPRMC,133157.000,A,5130.9431,N,00729.3060,E,6.3,82.5,130506,0.0,W*42
$GPRMC,133158.000,A,5130.9443,N,00729.3116,E,11.1,74.4,130506,0.0,W*74
$GPRMC,133159.000,A,5130.9457,N,00729.3171,E,12.8,72.7,130506,0.0,W*7E
$GPRMC,133200.000,A,5130.9468,N,00729.3224,E,12.9,73.2,130506,0.0,W*7B
$GPRMC,133201.000,A,5130.9479,N,00729.3282,E,13.7,75.5,130506,0.0,W*78
$GPRMC,133202.000,A,5130.9486,N,00729.3345,E,14.2,78.4,130506,0.0,W*7F
$GPRMC,133203.000,A,5130.9494,N,00729.3407,E,14.3,79.0,130506,0.0,W*78
$GPRMC,133204.000,A,5130.9500,N,00729.3468,E,14.2,80.9,130506,0.0,W*74
$GPRMC,133205.000,A,5130.9504,N,00729.3530,E,14.2,83.6,130506,0.0,W*71
$GPRMC,133206.000,A,5130.9508,N,00729.3591,E,14.0,84.9,130506,0.0,W*7F
$GPRMC,133207.000,A,5130.9509,N,00729.3652,E,13.9,87.4,130506,0.0,W*73
$GPRMC,133208.000,A,5130.9509,N,00729.3708,E,13.2,89.5,130506,0.0,W*76
$GPRMC,133209.000,A,5130.9508,N,00729.3762,E,12.4,90.9,130506,0.0,W*79
$GPRMC,133210.000,A,5130.9507,N,00729.3812,E,11.8,91.7,130506,0.0,W*76
$GPRMC,133211.000,A,5130.9506,N,00729.3845,E,9.6,96.8,130506,0.0,W*4B
$GPRMC,133212.000,A,5130.9496,N,00729.3867,E,7.4,116.8,130506,0.0,W*75
$GPRMC,133213.000,A,5130.9479,N,00729.3880,E,7.0,141.3,130506,0.0,W*71
$GPRMC,133214.000,A,5130.9453,N,00729.3886,E,8.7,163.7,130506,0.0,W*74
$GPRMC,133215.000,A,5130.9416,N,00729.3879,E,11.8,180.7,130506,0.0,W*4E
$GPRMC,133216.000,A,5130.9367,N,00729.3859,E,16.2,190.6,130506,0.0,W*43
$GPRMC,133217.000,A,5130.9317,N,00729.3857,E,17.5,183.9,130506,0.0,W*40
$GPRMC,133218.000,A,5130.9264,N,00729.3850,E,18.9,184.2,130506,0.0,W*42
$GPRMC,133219.000,A,5130.9210,N,00729.3844,E,19.4,183.4,130506,0.0,W*48
$GPRMC,133220.000,A,5130.9156,N,00729.3840,E,19.5,182.8,130506,0.0,W*4B
$GPRMC,133221.000,A,5130.9108,N,00729.3832,E,19.5,182.7,130506,0.0,W*4B
$GPRMC,133222.000,A,5130.9058,N,00729.3827,E,19.4,181.6,130506,0.0,W*4B
$GPRMC,133223.000,A,5130.9008,N,00729.3828,E,19.1,179.2,130506,0.0,W*46
$GPRMC,133224.000,A,5130.8954,N,00729.3839,E,19.8,174.3,130506,0.0,W*45
$GPRMC,133225.000,A,5130.8901,N,00729.3848,E,19.7,173.7,130506,0.0,W*4E
$GPRMC,133226.000,A,5130.8852,N,00729.3852,E,18.8,175.9,130506,0.0,W*47
$GPRMC,133227.000,A,5130.8806,N,00729.3850,E,17.3,179.5,130506,0.0,W*41
$GPRMC,133228.000,A,5130.8758,N,00729.3856,E,17.4,176.9,130506,0.0,W*48
$GPRMC,133229.000,A,5130.8710,N,00729.3864,E,17.2,175.0,130506,0.0,W*48
$GPRMC,133230.000,A,5130.8668,N,00729.3874,E,16.2,172.7,130506,0.0,W*4E
$GPRMC,133231.000,A,5130.8624,N,00729.3892,E,16.1,168.1,130506,0.0,W*41
$GPRMC,133232.000,A,5130.8582,N,00729.3910,E,15.6,166.0,130506,0.0,W*4D
$GPRMC,133233.000,A,5130.8543,N,00729.3918,E,14.9,170.5,130506,0.0,W*45
$GPRMC,133234.000,A,5130.8506,N,00729.3923,E,13.9,173.9,130506,0.0,W*43
$GPRMC,133235.000,A,5130.8479,N,00729.3927,E,11.0,174.7,130506,0.0,W*4D
$GPRMC,133236.000,A,5130.8464,N,00729.3925,E,7.1,180.8,130506,0.0,W*72
$GPRMC,133237.000,A,5130.8455,N,00729.3925,E,4.8,190.4,130506,0.0,W*76
$GPRMC,133238.000,A,5130.8446,N,00729.3931,E,2.5,194.5,130506,0.0,W*70
$GPRMC,133239.000,A,5130.8440,N,00729.3939,E,1.8,191.9,130506,0.0,W*78
$GPRMC,133240.000,A,5130.8423,N,00729.3921,E,5.5,212.5,130506,0.0,W*77
$GPRMC,133241.000,A,5130.8410,N,00729.3862,E,10.9,244.8,130506,0.0,W*46
$GPRMC,133242.000,A,5130.8401,N,00729.3781,E,16.1,256.5,130506,0.0,W*47
$GPRMC,133243.000,A,5130.8391,N,00729.3702,E,17.6,258.1,130506,0.0,W*4F
$GPRMC,133244.000,A,5130.8378,N,00729.3606,E,20.7,258.3,130506,0.0,W*4D
$GPRMC,133245.000,A,5130.8365,N,00729.3507,E,22.1,258.0,130506,0.0,W*45
$GPRMC,133246.000,A,5130.8351,N,00729.3413,E,21.8,257.1,130506,0.0,W*41
$GPRMC,133247.000,A,5130.8338,N,00729.3314,E,22.4,258.2,130506,0.0,W*4C
$GPRMC,133248.000,A,5130.8327,N,00729.3210,E,23.0,259.3,130506,0.0,W*4D
$GPRMC,133249.000,A,5130.8319,N,00729.3115,E,22.1,261.3,130506,0.0,W*4C
$GPRMC,133250.000,A,5130.8315,N,00729.3044,E,18.1,263.1,130506,0.0,W*44
$GPRMC,133251.000,A,5130.8313,N,00729.2996,E,13.2,264.3,130506,0.0,W*49
$GPRMC,133252.000,A,5130.8311,N,00729.2973,E,7.9,264.5,130506,0.0,W*7B
$GPRMC,133253.000,A,5130.8309,N,00729.2967,E,3.9,265.1,130506,0.0,W*77
$GPRMC,133254.000,A,5130.8308,N,00729.2974,E,0.7,267.2,130506,0.0,W*7F
$GPRMC,133255.000,A,5130.8307,N,00729.2982,E,0.7,84.3,130506,0.0,W*46
$GPRMC,133256.000,A,5130.8306,N,00729.2985,E,0.5,83.4,130506,0.0,W*41
$GPRMC,133257.000,A,5130.8305,N,00729.2986,E,0.2,83.6,130506,0.0,W*45
$GPRMC,133258.000,A,5130.8304,N,00729.2986,E,0.1,0.0,130506,0.0,W*75
$GPRMC,133259.000,A,5130.8303,N,00729.2987,E,0.1,0.0,130506,0.0,W*72
$GPRMC,133300.000,A,5130.8303,N,00729.2987,E,0.1,0.0,130506,0.0,W*7F
$GPRMC,133301.000,A,5130.8302,N,00729.2988,E,0.0,0.0,130506,0.0,W*71
$GPRMC,133302.000,A,5130.8302,N,00729.2987,E,0.1,0.0,130506,0.0,W*7C
$GPRMC,133303.000,A,5130.8301,N,00729.2987,E,0.0,0.0,130506,0.0,W*7F
$GPRMC,133304.000,A,5130.8301,N,00729.2986,E,0.0,0.0,130506,0.0,W*79
$GPRMC,133305.000,A,5130.8301,N,00729.2986,E,0.1,0.0,130506,0.0,W*79
$GPRMC,133306.000,A,5130.8301,N,00729.2985,E,0.1,0.0,130506,0.0,W*79
$GPRMC,133307.000,A,5130.8300,N,00729.2984,E,0.0,0.0,130506,0.0,W*79
$GPRMC,133308.000,A,5130.8300,N,00729.2984,E,0.0,0.0,130506,0.0,W*76
$GPRMC,133309.000,A,5130.8300,N,00729.2984,E,0.0,0.0,130506,0.0,W*77
$GPRMC,133310.000,A,5130.8299,N,00729.2984,E,0.0,0.0,130506,0.0,W*7E
$GPRMC,133311.000,A,5130.8299,N,00729.2984,E,0.0,0.0,130506,0.0,W*7F
$GPRMC,133312.000,A,5130.8299,N,00729.2983,E,0.0,0.0,130506,0.0,W*7B
$GPRMC,133313.000,A,5130.8299,N,00729.2983,E,0.0,0.0,130506,0.0,W*7A
$GPRMC,133314.000,A,5130.8299,N,00729.2983,E,0.0,0.0,130506,0.0,W*7D
$GPRMC,133315.000,A,5130.8299,N,00729.2982,E,0.0,0.0,130506,0.0,W*7D
$GPRMC,133316.000,A,5130.8299,N,00729.2981,E,0.0,0.0,130506,0.0,W*7D
$GPRMC,133317.000,A,5130.8299,N,00729.2981,E,0.0,0.0,130506,0.0,W*7C
$GPRMC,133318.000,A,5130.8299,N,00729.2980,E,0.0,0.0,130506,0.0,W*72
$GPRMC,133319.000,A,5130.8299,N,00729.2979,E,0.0,0.0,130506,0.0,W*75
$GPRMC,133320.000,A,5130.8299,N,00729.2978,E,0.0,0.0,130506,0.0,W*7E
$GPRMC,133321.000,A,5130.8299,N,00729.2978,E,0.0,0.0,130506,0.0,W*7F
$GPRMC,133322.000,A,5130.8298,N,00729.2977,E,0.0,0.0,130506,0.0,W*72
$GPRMC,133323.000,A,5130.8298,N,00729.2977,E,0.0,0.0,130506,0.0,W*73
$GPRMC,133324.000,A,5130.8298,N,00729.2976,E,0.0,0.0,130506,0.0,W*75
$GPRMC,133325.000,A,5130.8298,N,00729.2976,E,0.0,0.0,130506,0.0,W*74
$GPRMC,133326.000,A,5130.8297,N,00729.2972,E,0.6,265.5,130506,0.0,W*7E
$GPRMC,133327.000,A,5130.8295,N,00729.2940,E,5.0,262.5,130506,0.0,W*78
$GPRMC,133328.000,A,5130.8292,N,00729.2885,E,9.9,265.4,130506,0.0,W*7B
$GPRMC,133329.000,A,5130.8297,N,00729.2848,E,8.9,275.6,130506,0.0,W*7C
$GPRMC,133330.000,A,5130.8301,N,00729.2851,E,2.7,292.2,130506,0.0,W*7B
$GPRMC,133331.000,A,5130.8302,N,00729.2856,E,0.6,323.4,130506,0.0,W*70
$GPRMC,133332.000,A,5130.8305,N,00729.2855,E,0.6,306.9,130506,0.0,W*7D
$GPRMC,133333.000,A,5130.8310,N,00729.2849,E,1.4,305.3,130506,0.0,W*7F
$GPRMC,133334.000,A,5130.8321,N,00729.2834,E,3.9,315.0,130506,0.0,W*7D
$GPRMC,133335.000,A,5130.8345,N,00729.2815,E,7.7,330.8,130506,0.0,W*78
$GPRMC,133336.000,A,5130.8385,N,00729.2794,E,12.4,339.5,130506,0.0,W*42
$GPRMC,133337.000,A,5130.8423,N,00729.2773,E,13.9,341.4,130506,0.0,W*43
$GPRMC,133338.000,A,5130.8464,N,00729.2754,E,14.9,342.9,130506,0.0,W*43
$GPRMC,133339.000,A,5130.8501,N,00729.2740,E,13.8,344.8,130506,0.0,W*44
$GPRMC,133340.000,A,5130.8522,N,00729.2729,E,10.0,344.7,130506,0.0,W*40
$GPRMC,133341.000,A,5130.8537,N,00729.2707,E,8.1,328.5,130506,0.0,W*79
$GPRMC,133342.000,A,5130.8543,N,00729.2667,E,8.3,296.9,130506,0.0,W*74
$GPRMC,133343.000,A,5130.8542,N,00729.2637,E,7.2,278.8,130506,0.0,W*7E
$GPRMC,133344.000,A,5130.8541,N,00729.2617,E,5.5,272.5,130506,0.0,W*7A
$GPRMC,133345.000,A,5130.8543,N,00729.2606,E,3.7,280.1,130506,0.0,W*74
$GPRMC,133346.000,A,5130.8554,N,00729.2586,E,5.1,305.2,130506,0.0,W*75
$GPRMC,133347.000,A,5130.8581,N,00729.2567,E,8.5,330.4,130506,0.0,W*7A
$GPRMC,133348.000,A,5130.8605,N,00729.2552,E,8.8,336.1,130506,0.0,W*72
$GPRMC,133349.000,A,5130.8612,N,00729.2523,E,7.0,308.2,130506,0.0,W*7A
$GPRMC,133350.000,A,5130.8604,N,00729.2497,E,5.8,267.8,130506,0.0,W*73
$GPRMC,133351.000,A,5130.8600,N,00729.2500,E,1.9,235.2,130506,0.0,W*71
$GPRMC,133352.000,A,5130.8600,N,00729.2507,E,0.6,117.8,130506,0.0,W*72
$GPRMC,133353.000,A,5130.8600,N,00729.2508,E,0.4,102.2,130506,0.0,W*70
$GPRMC,133354.000,A,5130.8600,N,00729.2508,E,0.2,0.0,130506,0.0,W*70
$GPRMC,133355.000,A,5130.8600,N,00729.2508,E,0.1,0.0,130506,0.0,W*72
$GPRMC,133356.000,A,5130.8600,N,00729.2508,E,0.1,0.0,130506,0.0,W*71
$GPRMC,133357.000,A,5130.8600,N,00729.2508,E,0.1,0.0,130506,0.0,W*70
$GPRMC,133358.000,A,5130.8600,N,00729.2508,E,0.1,0.0,130506,0.0,W*7F
$GPRMC,133359.000,A,5130.8600,N,00729.2507,E,0.1,0.0,130506,0.0,W*71
$GPRMC,133400.000,A,5130.8600,N,00729.2507,E,0.1,0.0,130506,0.0,W*7A
$GPRMC,133401.000,A,5130.8600,N,00729.2507,E,0.1,0.0,130506,0.0,W*7B
$GPRMC,133402.000,A,5130.8600,N,00729.2507,E,0.0,0.0,130506,0.0,W*79
$GPRMC,133403.000,A,5130.8600,N,00729.2507,E,0.0,0.0,130506,0.0,W*78
$GPRMC,133404.000,A,5130.8600,N,00729.2507,E,0.0,0.0,130506,0.0,W*7F
$GPRMC,133405.000,A,5130.8600,N,00729.2507,E,0.0,0.0,130506,0.0,W*7E
$GPRMC,133406.000,A,5130.8599,N,00729.2508,E,0.0,0.0,130506,0.0,W*71
$GPRMC,133407.000,A,5130.8599,N,00729.2508,E,0.1,0.0,130506,0.0,W*71
$GPRMC,133408.000,A,5130.8599,N,00729.2509,E,0.1,0.0,130506,0.0,W*7F
$GPRMC,133409.000,A,5130.8599,N,00729.2509,E,0.0,0.0,130506,0.0,W*7F
$GPRMC,133410.000,A,5130.8599,N,00729.2508,E,0.0,0.0,130506,0.0,W*76
$GPRMC,133411.000,A,5130.8599,N,00729.2508,E,0.1,0.0,130506,0.0,W*76
$GPRMC,133412.000,A,5130.8599,N,00729.2508,E,0.1,0.0,130506,0.0,W*75
$GPRMC,133413.000,A,5130.8599,N,00729.2509,E,0.1,0.0,130506,0.0,W*75
$GPRMC,133414.000,A,5130.8599,N,00729.2509,E,0.1,0.0,130506,0.0,W*72
$GPRMC,133415.000,A,5130.8598,N,00729.2509,E,0.1,0.0,130506,0.0,W*72
$GPRMC,133416.000,A,5130.8598,N,00729.2509,E,0.0,0.0,130506,0.0,W*70
$GPRMC,133417.000,A,5130.8598,N,00729.2509,E,0.0,0.0,130506,0.0,W*71
$GPRMC,133418.000,A,5130.8598,N,00729.2509,E,0.0,0.0,130506,0.0,W*7E
$GPRMC,133419.000,A,5130.8598,N,00729.2510,E,0.1,0.0,130506,0.0,W*76
$GPRMC,133420.000,A,5130.8598,N,00729.2509,E,0.0,0.0,130506,0.0,W*75
$GPRMC,133421.000,A,5130.8598,N,00729.2510,E,0.0,0.0,130506,0.0,W*7C
$GPRMC,133422.000,A,5130.8597,N,00729.2510,E,0.1,0.0,130506,0.0,W*71
$GPRMC,133423.000,A,5130.8598,N,00729.2511,E,0.0,0.0,130506,0.0,W*7F
$GPRMC,133424.000,A,5130.8597,N,00729.2511,E,0.0,0.0,130506,0.0,W*77
$GPRMC,133425.000,A,5130.8597,N,00729.2512,E,0.0,0.0,130506,0.0,W*75
$GPRMC,133426.000,A,5130.8597,N,00729.2512,E,0.0,0.0,130506,0.0,W*76
$GPRMC,133427.000,A,5130.8597,N,00729.2512,E,0.1,0.0,130506,0.0,W*76
$GPRMC,133428.000,A,5130.8598,N,00729.2512,E,0.0,0.0,130506,0.0,W*77
$GPRMC,133429.000,A,5130.8598,N,00729.2513,E,0.0,0.0,130506,0.0,W*77
$GPRMC,133430.000,A,5130.8598,N,00729.2514,E,0.0,0.0,130506,0.0,W*78
$GPRMC,133431.000,A,5130.8598,N,00729.2514,E,0.0,0.0,130506,0.0,W*79
$GPRMC,133432.000,A,5130.8597,N,00729.2514,E,0.0,0.0,130506,0.0,W*75
$GPRMC,133433.000,A,5130.8597,N,00729.2514,E,0.1,0.0,130506,0.0,W*75
$GPRMC,133434.000,A,5130.8598,N,00729.2514,E,0.0,0.0,130506,0.0,W*7C
$GPRMC,133435.000,A,5130.8598,N,00729.2514,E,0.0,0.0,130506,0.0,W*7D
$GPRMC,133436.000,A,5130.8598,N,00729.2515,E,0.0,0.0,130506,0.0,W*7F
$GPRMC,133437.000,A,5130.8598,N,00729.2516,E,0.0,0.0,130506,0.0,W*7D
$GPRMC,133438.000,A,5130.8598,N,00729.2516,E,0.1,0.0,130506,0.0,W*73
$GPRMC,133439.000,A,5130.8598,N,00729.2516,E,0.1,0.0,130506,0.0,W*72
$GPRMC,133440.000,A,5130.8598,N,00729.2516,E,0.0,0.0,130506,0.0,W*7D
$GPRMC,133441.000,A,5130.8598,N,00729.2516,E,0.1,0.0,130506,0.0,W*7D
$GPRMC,133442.000,A,5130.8598,N,00729.2516,E,0.0,0.0,130506,0.0,W*7F
$GPRMC,133443.000,A,5130.8598,N,00729.2516,E,0.1,0.0,130506,0.0,W*7F
$GPRMC,133444.000,A,5130.8598,N,00729.2516,E,0.0,0.0,130506,0.0,W*79
$GPRMC,133445.000,A,5130.8598,N,00729.2516,E,0.1,0.0,130506,0.0,W*79
$GPRMC,133446.000,A,5130.8598,N,00729.2516,E,0.1,0.0,130506,0.0,W*7A
$GPRMC,133447.000,A,5130.8598,N,00729.2516,E,0.0,0.0,130506,0.0,W*7A
$GPRMC,133448.000,A,5130.8598,N,00729.2516,E,0.1,0.0,130506,0.0,W*74
$GPRMC,133449.000,A,5130.8598,N,00729.2516,E,0.0,0.0,130506,0.0,W*74
$GPRMC,133450.000,A,5130.8598,N,00729.2516,E,0.0,0.0,130506,0.0,W*7C
$GPRMC,133451.000,A,5130.8598,N,00729.2516,E,0.1,0.0,130506,0.0,W*7C
$GPRMC,133452.000,A,5130.8599,N,00729.2517,E,0.0,0.0,130506,0.0,W*7E
$GPRMC,133453.000,A,5130.8599,N,00729.2517,E,0.1,0.0,130506,0.0,W*7E
$GPRMC,133454.000,A,5130.8599,N,00729.2517,E,0.0,0.0,130506,0.0,W*78
$GPRMC,133455.000,A,5130.8599,N,00729.2517,E,0.1,0.0,130506,0.0,W*78
$GPRMC,133456.000,A,5130.8599,N,00729.2517,E,0.1,0.0,130506,0.0,W*7B
$GPRMC,133457.000,A,5130.8599,N,00729.2517,E,0.1,0.0,130506,0.0,W*7A
$GPRMC,133458.000,A,5130.8599,N,00729.2517,E,0.1,0.0,130506,0.0,W*75
$GPRMC,133459.000,A,5130.8600,N,00729.2518,E,0.1,0.0,130506,0.0,W*78
$GPRMC,133500.000,A,5130.8600,N,00729.2518,E,0.1,0.0,130506,0.0,W*75
$GPRMC,133501.000,A,5130.8600,N,00729.2518,E,0.0,0.0,130506,0.0,W*75
$GPRMC,133502.000,A,5130.8600,N,00729.2518,E,0.0,0.0,130506,0.0,W*76
$GPRMC,133503.000,A,5130.8600,N,00729.2519,E,0.1,0.0,130506,0.0,W*77
$GPRMC,133504.000,A,5130.8600,N,00729.2519,E,0.0,0.0,130506,0.0,W*71
$GPRMC,133505.000,A,5130.8600,N,00729.2519,E,0.1,0.0,130506,0.0,W*71
$GPRMC,133506.000,A,5130.8600,N,00729.2519,E,0.1,0.0,130506,0.0,W*72
$GPRMC,133507.000,A,5130.8600,N,00729.2519,E,0.1,0.0,130506,0.0,W*73
$GPRMC,133508.000,A,5130.8600,N,00729.2519,E,0.1,0.0,130506,0.0,W*7C
$GPRMC,133509.000,A,5130.8600,N,00729.2520,E,0.1,0.0,130506,0.0,W*77
$GPRMC,133510.000,A,5130.8600,N,00729.2519,E,0.0,0.0,130506,0.0,W*74
$GPRMC,133511.000,A,5130.8600,N,00729.2519,E,0.1,0.0,130506,0.0,W*74
$GPRMC,133512.000,A,5130.8600,N,00729.2519,E,0.1,0.0,130506,0.0,W*77
$GPRMC,133513.000,A,5130.8600,N,00729.2519,E,0.1,0.0,130506,0.0,W*76
$GPRMC,133514.000,A,5130.8600,N,00729.2519,E,0.1,0.0,130506,0.0,W*71
$GPRMC,133515.000,A,5130.8600,N,00729.2519,E,0.1,0.0,130506,0.0,W*70
$GPRMC,133516.000,A,5130.8600,N,00729.2519,E,0.0,0.0,130506,0.0,W*72
$GPRMC,133517.000,A,5130.8600,N,00729.2519,E,0.0,0.0,130506,0.0,W*73
$GPRMC,133518.000,A,5130.8600,N,00729.2519,E,0.0,0.0,130506,0.0,W*7C
$GPRMC,133519.000,A,5130.8600,N,00729.2519,E,0.0,0.0,130506,0.0,W*7D
$GPRMC,133520.000,A,5130.8599,N,00729.2519,E,0.1,0.0,130506,0.0,W*75
$GPRMC,133521.000,A,5130.8599,N,00729.2520,E,0.0,0.0,130506,0.0,W*7F
$GPRMC,133522.000,A,5130.8599,N,00729.2520,E,0.0,0.0,130506,0.0,W*7C
$GPRMC,133523.000,A,5130.8599,N,00729.2520,E,0.0,0.0,130506,0.0,W*7D
$GPRMC,133524.000,A,5130.8599,N,00729.2520,E,0.0,0.0,130506,0.0,W*7A
$GPRMC,133525.000,A,5130.8599,N,00729.2520,E,0.0,0.0,130506,0.0,W*7B
$GPRMC,133526.000,A,5130.8599,N,00729.2520,E,0.0,0.0,130506,0.0,W*78
$GPRMC,133527.000,A,5130.8599,N,00729.2520,E,0.0,0.0,130506,0.0,W*79
$GPRMC,133528.000,A,5130.8598,N,00729.2520,E,0.0,0.0,130506,0.0,W*77
$GPRMC,133529.000,A,5130.8598,N,00729.2520,E,0.0,0.0,130506,0.0,W*76
$GPRMC,133530.000,A,5130.8598,N,00729.2520,E,0.0,0.0,130506,0.0,W*7E
$GPRMC,133531.000,A,5130.8598,N,00729.2520,E,0.0,0.0,130506,0.0,W*7F
$GPRMC,133532.000,A,5130.8598,N,00729.2520,E,0.0,0.0,130506,0.0,W*7C
$GPRMC,133533.000,A,5130.8598,N,00729.2520,E,0.0,0.0,130506,0.0,W*7D
$GPRMC,133534.000,A,5130.8597,N,00729.2520,E,0.0,0.0,130506,0.0,W*75
$GPRMC,133535.000,A,5130.8597,N,00729.2520,E,0.0,0.0,130506,0.0,W*74
$GPRMC,133536.000,A,5130.8597,N,00729.2520,E,0.0,0.0,130506,0.0,W*77
$GPRMC,133537.000,A,5130.8596,N,00729.2520,E,0.0,0.0,130506,0.0,W*77
$GPRMC,133538.000,A,5130.8596,N,00729.2520,E,0.0,0.0,130506,0.0,W*78
$GPRMC,133539.000,A,5130.8596,N,00729.2520,E,0.0,0.0,130506,0.0,W*79
$GPRMC,133540.000,A,5130.8595,N,00729.2520,E,0.0,0.0,130506,0.0,W*74
$GPRMC,133541.000,A,5130.8595,N,00729.2520,E,0.0,0.0,130506,0.0,W*75
$GPRMC,133542.000,A,5130.8595,N,00729.2521,E,0.0,0.0,130506,0.0,W*77
$GPRMC,133543.000,A,5130.8595,N,00729.2521,E,0.0,0.0,130506,0.0,W*76
$GPRMC,133544.000,A,5130.8594,N,00729.2522,E,0.0,0.0,130506,0.0,W*73
$GPRMC,133545.000,A,5130.8594,N,00729.2522,E,0.0,0.0,130506,0.0,W*72
$GPRMC,133546.000,A,5130.8594,N,00729.2523,E,0.0,0.0,130506,0.0,W*70
$GPRMC,133547.000,A,5130.8593,N,00729.2523,E,0.0,0.0,130506,0.0,W*76
$GPRMC,133548.000,A,5130.8593,N,00729.2524,E,0.0,0.0,130506,0.0,W*7E
$GPRMC,133549.000,A,5130.8593,N,00729.2524,E,0.0,0.0,130506,0.0,W*7F
$GPRMC,133550.000,A,5130.8592,N,00729.2525,E,0.0,0.0,130506,0.0,W*77
$GPRMC,133551.000,A,5130.8592,N,00729.2525,E,0.0,0.0,130506,0.0,W*76
$GPRMC,133552.000,A,5130.8592,N,00729.2526,E,0.1,0.0,130506,0.0,W*77
$GPRMC,133553.000,A,5130.8592,N,00729.2526,E,0.0,0.0,130506,0.0,W*77
$GPRMC,133554.000,A,5130.8592,N,00729.2526,E,0.0,0.0,130506,0.0,W*70
$GPRMC,133555.000,A,5130.8591,N,00729.2527,E,0.1,0.0,130506,0.0,W*72
$GPRMC,133556.000,A,5130.8591,N,00729.2527,E,0.1,0.0,130506,0.0,W*71
$GPRMC,133557.000,A,5130.8591,N,00729.2527,E,0.0,0.0,130506,0.0,W*71
$GPRMC,133558.000,A,5130.8591,N,00729.2527,E,0.0,0.0,130506,0.0,W*7E
$GPRMC,133559.000,A,5130.8591,N,00729.2527,E,0.0,0.0,130506,0.0,W*7F
$GPRMC,133600.000,A,5130.8590,N,00729.2527,E,0.1,0.0,130506,0.0,W*70
$GPRMC,133601.000,A,5130.8590,N,00729.2527,E,0.1,0.0,130506,0.0,W*71
$GPRMC,133602.000,A,5130.8590,N,00729.2527,E,0.1,0.0,130506,0.0,W*72
$GPRMC,133603.000,A,5130.8590,N,00729.2527,E,0.0,0.0,130506,0.0,W*72
$GPRMC,133604.000,A,5130.8590,N,00729.2527,E,0.1,0.0,130506,0.0,W*74
$GPRMC,133605.000,A,5130.8589,N,00729.2527,E,0.0,0.0,130506,0.0,W*7C
$GPRMC,133606.000,A,5130.8589,N,00729.2527,E,0.0,0.0,130506,0.0,W*7F
$GPRMC,133607.000,A,5130.8588,N,00729.2527,E,0.1,0.0,130506,0.0,W*7E
$GPRMC,133608.000,A,5130.8588,N,00729.2526,E,0.1,0.0,130506,0.0,W*70
$GPRMC,133609.000,A,5130.8588,N,00729.2527,E,0.1,0.0,130506,0.0,W*70
$GPRMC,133610.000,A,5130.8588,N,00729.2527,E,0.0,0.0,130506,0.0,W*79
$GPRMC,133611.000,A,5130.8587,N,00729.2527,E,0.1,0.0,130506,0.0,W*76
$GPRMC,133612.000,A,5130.8587,N,00729.2526,E,0.1,0.0,130506,0.0,W*74
$GPRMC,133613.000,A,5130.8587,N,00729.2527,E,0.0,0.0,130506,0.0,W*75
$GPRMC,133614.000,A,5130.8587,N,00729.2527,E,0.1,0.0,130506,0.0,W*73
$GPRMC,133615.000,A,5130.8587,N,00729.2527,E,0.0,0.0,130506,0.0,W*73
$GPRMC,133616.000,A,5130.8587,N,00729.2527,E,0.0,0.0,130506,0.0,W*70
$GPRMC,133617.000,A,5130.8587,N,00729.2528,E,0.0,0.0,130506,0.0,W*7E
$GPRMC,133618.000,A,5130.8588,N,00729.2528,E,0.0,0.0,130506,0.0,W*7E
$GPRMC,133619.000,A,5130.8588,N,00729.2528,E,0.1,0.0,130506,0.0,W*7E
$GPRMC,133620.000,A,5130.8589,N,00729.2529,E,0.0,0.0,130506,0.0,W*75
$GPRMC,133621.000,A,5130.8589,N,00729.2529,E,0.1,0.0,130506,0.0,W*75
$GPRMC,133622.000,A,5130.8589,N,00729.2529,E,0.0,0.0,130506,0.0,W*77
$GPRMC,133623.000,A,5130.8589,N,00729.2529,E,0.0,0.0,130506,0.0,W*76
$GPRMC,133624.000,A,5130.8589,N,00729.2529,E,0.0,0.0,130506,0.0,W*71
$GPRMC,133625.000,A,5130.8589,N,00729.2529,E,0.0,0.0,130506,0.0,W*70
$GPRMC,133626.000,A,5130.8589,N,00729.2529,E,0.0,0.0,130506,0.0,W*73
$GPRMC,133627.000,A,5130.8590,N,00729.2529,E,0.0,0.0,130506,0.0,W*7A
$GPRMC,133628.000,A,5130.8590,N,00729.2529,E,0.0,0.0,130506,0.0,W*75
$GPRMC,133629.000,A,5130.8590,N,00729.2529,E,0.0,0.0,130506,0.0,W*74
$GPRMC,133630.000,A,5130.8590,N,00729.2529,E,0.0,0.0,130506,0.0,W*7C
$GPRMC,133631.000,A,5130.8590,N,00729.2530,E,0.0,0.0,130506,0.0,W*75
$GPRMC,133632.000,A,5130.8590,N,00729.2530,E,0.0,0.0,130506,0.0,W*76
$GPRMC,133633.000,A,5130.8590,N,00729.2530,E,0.0,0.0,130506,0.0,W*77
$GPRMC,133634.000,A,5130.8590,N,00729.2530,E,0.0,0.0,130506,0.0,W*70
$GPRMC,133635.000,A,5130.8589,N,00729.2530,E,0.0,0.0,130506,0.0,W*79
$GPRMC,133636.000,A,5130.8590,N,00729.2530,E,0.0,0.0,130506,0.0,W*72
$GPRMC,133637.000,A,5130.8589,N,00729.2530,E,0.0,0.0,130506,0.0,W*7B
$GPRMC,133638.000,A,5130.8590,N,00729.2531,E,0.0,0.0,130506,0.0,W*7D
$GPRMC,133639.000,A,5130.8590,N,00729.2531,E,0.0,0.0,130506,0.0,W*7C
$GPRMC,133640.000,A,5130.8590,N,00729.2531,E,0.0,0.0,130506,0.0,W*72
$GPRMC,133641.000,A,5130.8591,N,00729.2531,E,0.0,0.0,130506,0.0,W*72
$GPRMC,133642.000,A,5130.8591,N,00729.2531,E,0.0,0.0,130506,0.0,W*71
$GPRMC,133643.000,A,5130.8592,N,00729.2531,E,0.0,0.0,130506,0.0,W*73
$GPRMC,133644.000,A,5130.8592,N,00729.2531,E,0.0,0.0,130506,0.0,W*74
$GPRMC,133645.000,A,5130.8592,N,00729.2531,E,0.0,0.0,130506,0.0,W*75
$GPRMC,133646.000,A,5130.8592,N,00729.2531,E,0.0,0.0,130506,0.0,W*76
$GPRMC,133647.000,A,5130.8593,N,00729.2531,E,0.0,0.0,130506,0.0,W*76
$GPRMC,133648.000,A,5130.8592,N,00729.2531,E,0.0,0.0,130506,0.0,W*78
$GPRMC,133649.000,A,5130.8592,N,00729.2531,E,0.0,0.0,130506,0.0,W*79
$GPRMC,133650.000,A,5130.8593,N,00729.2531,E,0.0,0.0,130506,0.0,W*70
$GPRMC,133651.000,A,5130.8593,N,00729.2531,E,0.0,0.0,130506,0.0,W*71
$GPRMC,133652.000,A,5130.8593,N,00729.2531,E,0.0,0.0,130506,0.0,W*72
$GPRMC,133653.000,A,5130.8593,N,00729.2531,E,0.0,0.0,130506,0.0,W*73
$GPRMC,133654.000,A,5130.8593,N,00729.2531,E,0.1,0.0,130506,0.0,W*75
$GPRMC,133655.000,A,5130.8593,N,00729.2530,E,0.0,0.0,130506,0.0,W*74
$GPRMC,133656.000,A,5130.8594,N,00729.2530,E,0.1,0.0,130506,0.0,W*71
$GPRMC,133657.000,A,5130.8594,N,00729.2530,E,0.1,0.0,130506,0.0,W*70
$GPRMC,133658.000,A,5130.8594,N,00729.2530,E,0.0,0.0,130506,0.0,W*7E
$GPRMC,133659.000,A,5130.8594,N,00729.2530,E,0.1,0.0,130506,0.0,W*7E
$GPRMC,133700.000,A,5130.8594,N,00729.2529,E,0.1,0.0,130506,0.0,W*7B
$GPRMC,133701.000,A,5130.8594,N,00729.2529,E,0.1,0.0,130506,0.0,W*7A
$GPRMC,133702.000,A,5130.8594,N,00729.2529,E,0.1,0.0,130506,0.0,W*79
$GPRMC,133703.000,A,5130.8594,N,00729.2528,E,0.1,0.0,130506,0.0,W*79
$GPRMC,133704.000,A,5130.8594,N,00729.2528,E,0.1,0.0,130506,0.0,W*7E
$GPRMC,133705.000,A,5130.8595,N,00729.2528,E,0.1,0.0,130506,0.0,W*7E
$GPRMC,133706.000,A,5130.8594,N,00729.2527,E,0.0,0.0,130506,0.0,W*72
$GPRMC,133707.000,A,5130.8594,N,00729.2527,E,0.1,0.0,130506,0.0,W*72
$GPRMC,133708.000,A,5130.8594,N,00729.2526,E,0.1,0.0,130506,0.0,W*7C
$GPRMC,133709.000,A,5130.8595,N,00729.2526,E,0.1,0.0,130506,0.0,W*7C
$GPRMC,133710.000,A,5130.8595,N,00729.2526,E,0.1,0.0,130506,0.0,W*74
$GPRMC,133711.000,A,5130.8595,N,00729.2526,E,0.1,0.0,130506,0.0,W*75
$GPRMC,133712.000,A,5130.8595,N,00729.2525,E,0.1,0.0,130506,0.0,W*75
$GPRMC,133713.000,A,5130.8595,N,00729.2525,E,0.1,0.0,130506,0.0,W*74
$GPRMC,133714.000,A,5130.8596,N,00729.2525,E,0.0,0.0,130506,0.0,W*71
$GPRMC,133715.000,A,5130.8596,N,00729.2524,E,0.1,0.0,130506,0.0,W*70
$GPRMC,133716.000,A,5130.8596,N,00729.2524,E,0.0,0.0,130506,0.0,W*72
$GPRMC,133717.000,A,5130.8596,N,00729.2524,E,0.1,0.0,130506,0.0,W*72
$GPRMC,133718.000,A,5130.8596,N,00729.2523,E,0.1,0.0,130506,0.0,W*7A
$GPRMC,133719.000,A,5130.8596,N,00729.2523,E,0.1,0.0,130506,0.0,W*7B
$GPRMC,133720.000,A,5130.8596,N,00729.2522,E,0.0,0.0,130506,0.0,W*71
$GPRMC,133721.000,A,5130.8596,N,00729.2522,E,0.0,0.0,130506,0.0,W*70
$GPRMC,133722.000,A,5130.8596,N,00729.2522,E,0.0,0.0,130506,0.0,W*73
$GPRMC,133723.000,A,5130.8596,N,00729.2522,E,0.1,0.0,130506,0.0,W*73
$GPRMC,133724.000,A,5130.8596,N,00729.2521,E,0.0,0.0,130506,0.0,W*76
$GPRMC,133725.000,A,5130.8596,N,00729.2521,E,0.0,0.0,130506,0.0,W*77
$GPRMC,133726.000,A,5130.8596,N,00729.2521,E,0.1,0.0,130506,0.0,W*75
$GPRMC,133727.000,A,5130.8596,N,00729.2521,E,0.0,0.0,130506,0.0,W*75
$GPRMC,133728.000,A,5130.8596,N,00729.2521,E,0.0,0.0,130506,0.0,W*7A
$GPRMC,133729.000,A,5130.8596,N,00729.2521,E,0.0,0.0,130506,0.0,W*7B
$GPRMC,133730.000,A,5130.8596,N,00729.2521,E,0.0,0.0,130506,0.0,W*73
$GPRMC,133731.000,A,5130.8596,N,00729.2520,E,0.0,0.0,130506,0.0,W*73
$GPRMC,133732.000,A,5130.8596,N,00729.2520,E,0.0,0.0,130506,0.0,W*70
$GPRMC,133733.000,A,5130.8596,N,00729.2520,E,0.0,0.0,130506,0.0,W*71
$GPRMC,133734.000,A,5130.8596,N,00729.2520,E,0.0,0.0,130506,0.0,W*76
$GPRMC,133735.000,A,5130.8596,N,00729.2519,E,0.0,0.0,130506,0.0,W*7D
$GPRMC,133736.000,A,5130.8596,N,00729.2519,E,0.0,0.0,130506,0.0,W*7E
$GPRMC,133737.000,A,5130.8596,N,00729.2519,E,0.0,0.0,130506,0.0,W*7F
$GPRMC,133738.000,A,5130.8596,N,00729.2519,E,0.0,0.0,130506,0.0,W*70
$GPRMC,133739.000,A,5130.8596,N,00729.2519,E,0.1,0.0,130506,0.0,W*70
$GPRMC,133740.000,A,5130.8596,N,00729.2519,E,0.0,0.0,130506,0.0,W*7F
$GPRMC,133741.000,A,5130.8596,N,00729.2518,E,0.0,0.0,130506,0.0,W*7F
$GPRMC,133742.000,A,5130.8596,N,00729.2518,E,0.0,0.0,130506,0.0,W*7C
$GPRMC,133743.000,A,5130.8596,N,00729.2518,E,0.0,0.0,130506,0.0,W*7D
$GPRMC,133744.000,A,5130.8596,N,00729.2518,E,0.0,0.0,130506,0.0,W*7A
$GPRMC,133745.000,A,5130.8596,N,00729.2518,E,0.0,0.0,130506,0.0,W*7B
$GPRMC,133746.000,A,5130.8597,N,00729.2518,E,0.0,0.0,130506,0.0,W*79
$GPRMC,133747.000,A,5130.8597,N,00729.2518,E,0.1,0.0,130506,0.0,W*79
$GPRMC,133748.000,A,5130.8597,N,00729.2518,E,0.0,0.0,130506,0.0,W*77
$GPRMC,133749.000,A,5130.8597,N,00729.2518,E,0.0,0.0,130506,0.0,W*76
$GPRMC,133750.000,A,5130.8597,N,00729.2518,E,0.0,0.0,130506,0.0,W*7E
$GPRMC,133751.000,A,5130.8597,N,00729.2518,E,0.1,0.0,130506,0.0,W*7E
$GPRMC,133752.000,A,5130.8597,N,00729.2518,E,0.0,0.0,130506,0.0,W*7C
$GPRMC,133753.000,A,5130.8597,N,00729.2517,E,0.0,0.0,130506,0.0,W*72
$GPRMC,133754.000,A,5130.8597,N,00729.2517,E,0.1,0.0,130506,0.0,W*74
$GPRMC,133755.000,A,5130.8597,N,00729.2517,E,0.0,0.0,130506,0.0,W*74
$GPRMC,133756.000,A,5130.8597,N,00729.2517,E,0.0,0.0,130506,0.0,W*77
$GPRMC,133757.000,A,5130.8597,N,00729.2517,E,0.0,0.0,130506,0.0,W*76
$GPRMC,133758.000,A,5130.8597,N,00729.2517,E,0.1,0.0,130506,0.0,W*78
$GPRMC,133759.000,A,5130.8597,N,00729.2517,E,0.0,0.0,130506,0.0,W*78
$GPRMC,133800.000,A,5130.8597,N,00729.2516,E,0.0,0.0,130506,0.0,W*7A
$GPRMC,133801.000,A,5130.8597,N,00729.2516,E,0.1,0.0,130506,0.0,W*7A
$GPRMC,133802.000,A,5130.8597,N,00729.2516,E,0.1,0.0,130506,0.0,W*79
$GPRMC,133803.000,A,5130.8598,N,00729.2516,E,0.1,0.0,130506,0.0,W*77
$GPRMC,133804.000,A,5130.8598,N,00729.2516,E,0.0,0.0,130506,0.0,W*71
$GPRMC,133805.000,A,5130.8598,N,00729.2516,E,0.0,0.0,130506,0.0,W*70
$GPRMC,133806.000,A,5130.8598,N,00729.2516,E,0.1,0.0,130506,0.0,W*72
$GPRMC,133807.000,A,5130.8598,N,00729.2516,E,0.0,0.0,130506,0.0,W*72
$GPRMC,133808.000,A,5130.8598,N,00729.2515,E,0.1,0.0,130506,0.0,W*7F
$GPRMC,133809.000,A,5130.8598,N,00729.2515,E,0.0,0.0,130506,0.0,W*7F
$GPRMC,133810.000,A,5130.8598,N,00729.2515,E,0.1,0.0,130506,0.0,W*76
$GPRMC,133811.000,A,5130.8598,N,00729.2515,E,0.1,0.0,130506,0.0,W*77
$GPRMC,133812.000,A,5130.8598,N,00729.2515,E,0.1,0.0,130506,0.0,W*74
$GPRMC,133813.000,A,5130.8598,N,00729.2515,E,0.1,0.0,130506,0.0,W*75
$GPRMC,133814.000,A,5130.8598,N,00729.2515,E,0.1,0.0,130506,0.0,W*72
$GPRMC,133815.000,A,5130.8598,N,00729.2515,E,0.1,0.0,130506,0.0,W*73
$GPRMC,133816.000,A,5130.8598,N,00729.2515,E,0.1,0.0,130506,0.0,W*70
$GPRMC,133817.000,A,5130.8598,N,00729.2515,E,0.1,0.0,130506,0.0,W*71
$GPRMC,133818.000,A,5130.8598,N,00729.2515,E,0.1,0.0,130506,0.0,W*7E
$GPRMC,133819.000,A,5130.8598,N,00729.2515,E,0.1,0.0,130506,0.0,W*7F
$GPRMC,133820.000,A,5130.8598,N,00729.2515,E,0.0,0.0,130506,0.0,W*74
$GPRMC,133821.000,A,5130.8598,N,00729.2515,E,0.0,0.0,130506,0.0,W*75
$GPRMC,133822.000,A,5130.8598,N,00729.2515,E,0.0,0.0,130506,0.0,W*76
$GPRMC,133823.000,A,5130.8598,N,00729.2515,E,0.0,0.0,130506,0.0,W*77
$GPRMC,133824.000,A,5130.8598,N,00729.2515,E,0.1,0.0,130506,0.0,W*71
$GPRMC,133825.000,A,5130.8598,N,00729.2515,E,0.0,0.0,130506,0.0,W*71
$GPRMC,133826.000,A,5130.8598,N,00729.2515,E,0.0,0.0,130506,0.0,W*72
$GPRMC,133827.000,A,5130.8598,N,00729.2515,E,0.0,0.0,130506,0.0,W*73
$GPRMC,133828.000,A,5130.8598,N,00729.2515,E,0.0,0.0,130506,0.0,W*7C
$GPRMC,133829.000,A,5130.8598,N,00729.2515,E,0.0,0.0,130506,0.0,W*7D
$GPRMC,133830.000,A,5130.8598,N,00729.2515,E,0.0,0.0,130506,0.0,W*75
$GPRMC,133831.000,A,5130.8598,N,00729.2515,E,0.1,0.0,130506,0.0,W*75
$GPRMC,133832.000,A,5130.8598,N,00729.2515,E,0.0,0.0,130506,0.0,W*77
$GPRMC,133833.000,A,5130.8598,N,00729.2515,E,0.0,0.0,130506,0.0,W*76
$GPRMC,133834.000,A,5130.8598,N,00729.2515,E,0.0,0.0,130506,0.0,W*71
$GPRMC,133835.000,A,5130.8598,N,00729.2515,E,0.0,0.0,130506,0.0,W*70
$GPRMC,133836.000,A,5130.8598,N,00729.2515,E,0.0,0.0,130506,0.0,W*73
$GPRMC,133837.000,A,5130.8598,N,00729.2515,E,0.0,0.0,130506,0.0,W*72
$GPRMC,133838.000,A,5130.8598,N,00729.2515,E,0.0,0.0,130506,0.0,W*7D
$GPRMC,133839.000,A,5130.8598,N,00729.2515,E,0.0,0.0,130506,0.0,W*7C
$GPRMC,133840.000,A,5130.8598,N,00729.2516,E,0.0,0.0,130506,0.0,W*71
$GPRMC,133841.000,A,5130.8598,N,00729.2516,E,0.0,0.0,130506,0.0,W*70
$GPRMC,133842.000,A,5130.8598,N,00729.2516,E,0.0,0.0,130506,0.0,W*73
$GPRMC,133843.000,A,5130.8598,N,00729.2516,E,0.0,0.0,130506,0.0,W*72
$GPRMC,133844.000,A,5130.8598,N,00729.2516,E,0.0,0.0,130506,0.0,W*75
$GPRMC,133845.000,A,5130.8598,N,00729.2516,E,0.0,0.0,130506,0.0,W*74
$GPRMC,133846.000,A,5130.8598,N,00729.2516,E,0.0,0.0,130506,0.0,W*77
$GPRMC,133847.000,A,5130.8598,N,00729.2516,E,0.0,0.0,130506,0.0,W*76
$GPRMC,133848.000,A,5130.8598,N,00729.2516,E,0.0,0.0,130506,0.0,W*79
$GPRMC,133849.000,A,5130.8598,N,00729.2516,E,0.0,0.0,130506,0.0,W*78
$GPRMC,133850.000,A,5130.8598,N,00729.2516,E,0.0,0.0,130506,0.0,W*70
$GPRMC,133851.000,A,5130.8598,N,00729.2517,E,0.0,0.0,130506,0.0,W*70
$GPRMC,133852.000,A,5130.8598,N,00729.2517,E,0.0,0.0,130506,0.0,W*73
$GPRMC,133853.000,A,5130.8598,N,00729.2517,E,0.0,0.0,130506,0.0,W*72
$GPRMC,133854.000,A,5130.8598,N,00729.2517,E,0.0,0.0,130506,0.0,W*75
$GPRMC,133855.000,A,5130.8598,N,00729.2517,E,0.0,0.0,130506,0.0,W*74
$GPRMC,133856.000,A,5130.8598,N,00729.2517,E,0.0,0.0,130506,0.0,W*77
$GPRMC,133857.000,A,5130.8598,N,00729.2518,E,0.0,0.0,130506,0.0,W*79
$GPRMC,133858.000,A,5130.8598,N,00729.2518,E,0.0,0.0,130506,0.0,W*76
$GPRMC,133859.000,A,5130.8598,N,00729.2518,E,0.0,0.0,130506,0.0,W*77
$GPRMC,133900.000,A,5130.8598,N,00729.2518,E,0.0,0.0,130506,0.0,W*7A
$GPRMC,133901.000,A,5130.8598,N,00729.2518,E,0.0,0.0,130506,0.0,W*7B
$GPRMC,133902.000,A,5130.8598,N,00729.2518,E,0.1,0.0,130506,0.0,W*79
$GPRMC,133903.000,A,5130.8598,N,00729.2518,E,0.0,0.0,130506,0.0,W*79
$GPRMC,133904.000,A,5130.8598,N,00729.2518,E,0.0,0.0,130506,0.0,W*7E
$GPRMC,133905.000,A,5130.8598,N,00729.2519,E,0.0,0.0,130506,0.0,W*7E
$GPRMC,133906.000,A,5130.8598,N,00729.2519,E,0.0,0.0,130506,0.0,W*7D
$GPRMC,133907.000,A,5130.8598,N,00729.2519,E,0.0,0.0,130506,0.0,W*7C
$GPRMC,133908.000,A,5130.8598,N,00729.2519,E,0.0,0.0,130506,0.0,W*73
$GPRMC,133909.000,A,5130.8598,N,00729.2519,E,0.0,0.0,130506,0.0,W*72
$GPRMC,133910.000,A,5130.8598,N,00729.2519,E,0.0,0.0,130506,0.0,W*7A
$GPRMC,133911.000,A,5130.8598,N,00729.2519,E,0.1,0.0,130506,0.0,W*7A
$GPRMC,133912.000,A,5130.8598,N,00729.2519,E,0.0,0.0,130506,0.0,W*78
$GPRMC,133913.000,A,5130.8598,N,00729.2519,E,0.1,0.0,130506,0.0,W*78
$GPRMC,133914.000,A,5130.8598,N,00729.2519,E,0.1,0.0,130506,0.0,W*7F
$GPRMC,133915.000,A,5130.8598,N,00729.2519,E,0.1,0.0,130506,0.0,W*7E
$GPRMC,133916.000,A,5130.8598,N,00729.2519,E,0.1,0.0,130506,0.0,W*7D
$GPRMC,133917.000,A,5130.8598,N,00729.2519,E,0.1,0.0,130506,0.0,W*7C
$GPRMC,133918.000,A,5130.8598,N,00729.2519,E,0.1,0.0,130506,0.0,W*73
$GPRMC,133919.000,A,5130.8597,N,00729.2520,E,0.1,0.0,130506,0.0,W*77
$GPRMC,133920.000,A,5130.8597,N,00729.2520,E,0.1,0.0,130506,0.0,W*7D
$GPRMC,133921.000,A,5130.8597,N,00729.2520,E,0.1,0.0,130506,0.0,W*7C
$GPRMC,133922.000,A,5130.8597,N,00729.2520,E,0.1,0.0,130506,0.0,W*7F
$GPRMC,133923.000,A,5130.8597,N,00729.2520,E,0.1,0.0,130506,0.0,W*7E
$GPRMC,133924.000,A,5130.8597,N,00729.2520,E,0.0,0.0,130506,0.0,W*78
$GPRMC,133925.000,A,5130.8597,N,00729.2520,E,0.0,0.0,130506,0.0,W*79
$GPRMC,133926.000,A,5130.8597,N,00729.2521,E,0.0,0.0,130506,0.0,W*7B
$GPRMC,133927.000,A,5130.8597,N,00729.2521,E,0.0,0.0,130506,0.0,W*7A
$GPRMC,133928.000,A,5130.8597,N,00729.2521,E,0.1,0.0,130506,0.0,W*74
$GPRMC,133929.000,A,5130.8597,N,00729.2521,E,0.0,0.0,130506,0.0,W*74
$GPRMC,133930.000,A,5130.8597,N,00729.2521,E,0.0,0.0,130506,0.0,W*7C
$GPRMC,133931.000,A,5130.8597,N,00729.2521,E,0.1,0.0,130506,0.0,W*7C
$GPRMC,133932.000,A,5130.8597,N,00729.2521,E,0.0,0.0,130506,0.0,W*7E
$GPRMC,133933.000,A,5130.8597,N,00729.2522,E,0.0,0.0,130506,0.0,W*7C
$GPRMC,133934.000,A,5130.8597,N,00729.2522,E,0.0,0.0,130506,0.0,W*7B
$GPRMC,133935.000,A,5130.8597,N,00729.2522,E,0.0,0.0,130506,0.0,W*7A
$GPRMC,133936.000,A,5130.8596,N,00729.2522,E,0.0,0.0,130506,0.0,W*78
$GPRMC,133937.000,A,5130.8596,N,00729.2522,E,0.0,0.0,130506,0.0,W*79
$GPRMC,133938.000,A,5130.8596,N,00729.2522,E,0.0,0.0,130506,0.0,W*76
$GPRMC,133939.000,A,5130.8596,N,00729.2522,E,0.1,0.0,130506,0.0,W*76
$GPRMC,133940.000,A,5130.8596,N,00729.2523,E,0.0,0.0,130506,0.0,W*78
$GPRMC,133941.000,A,5130.8596,N,00729.2523,E,0.0,0.0,130506,0.0,W*79
$GPRMC,133942.000,A,5130.8596,N,00729.2523,E,0.0,0.0,130506,0.0,W*7A
$GPRMC,133943.000,A,5130.8596,N,00729.2523,E,0.0,0.0,130506,0.0,W*7B
$GPRMC,133944.000,A,5130.8596,N,00729.2523,E,0.0,0.0,130506,0.0,W*7C
$GPRMC,133945.000,A,5130.8596,N,00729.2522,E,0.0,0.0,130506,0.0,W*7C
$GPRMC,133946.000,A,5130.8596,N,00729.2522,E,0.0,0.0,130506,0.0,W*7F
$GPRMC,133947.000,A,5130.8596,N,00729.2522,E,0.0,0.0,130506,0.0,W*7E
$GPRMC,133948.000,A,5130.8595,N,00729.2522,E,0.0,0.0,130506,0.0,W*72
$GPRMC,133949.000,A,5130.8595,N,00729.2522,E,0.0,0.0,130506,0.0,W*73
$GPRMC,133950.000,A,5130.8595,N,00729.2522,E,0.0,0.0,130506,0.0,W*7B
$GPRMC,133951.000,A,5130.8595,N,00729.2522,E,0.0,0.0,130506,0.0,W*7A
$GPRMC,133952.000,A,5130.8595,N,00729.2522,E,0.0,0.0,130506,0.0,W*79
$GPRMC,133953.000,A,5130.8595,N,00729.2522,E,0.0,0.0,130506,0.0,W*78
$GPRMC,133954.000,A,5130.8595,N,00729.2522,E,0.0,0.0,130506,0.0,W*7F
$GPRMC,133955.000,A,5130.8595,N,00729.2522,E,0.0,0.0,130506,0.0,W*7E
$GPRMC,133956.000,A,5130.8595,N,00729.2522,E,0.0,0.0,130506,0.0,W*7D
$GPRMC,133957.000,A,5130.8595,N,00729.2522,E,0.0,0.0,130506,0.0,W*7C
$GPRMC,133958.000,A,5130.8595,N,00729.2522,E,0.0,0.0,130506,0.0,W*73
$GPRMC,133959.000,A,5130.8595,N,00729.2521,E,0.0,0.0,130506,0.0,W*71
$GPRMC,134000.000,A,5130.8595,N,00729.2521,E,0.0,0.0,130506,0.0,W*73
$GPRMC,134001.000,A,5130.8595,N,00729.2521,E,0.1,0.0,130506,0.0,W*73
$GPRMC,134002.000,A,5130.8595,N,00729.2521,E,0.0,0.0,130506,0.0,W*71
$GPRMC,134003.000,A,5130.8595,N,00729.2521,E,0.0,0.0,130506,0.0,W*70
$GPRMC,134004.000,A,5130.8595,N,00729.2521,E,0.1,0.0,130506,0.0,W*76
$GPRMC,134005.000,A,5130.8595,N,00729.2521,E,0.0,0.0,130506,0.0,W*76
$GPRMC,134006.000,A,5130.8595,N,00729.2521,E,0.0,0.0,130506,0.0,W*75
$GPRMC,134007.000,A,5130.8595,N,00729.2521,E,0.0,0.0,130506,0.0,W*74
$GPRMC,134008.000,A,5130.8595,N,00729.2521,E,0.0,0.0,130506,0.0,W*7B
$GPRMC,134009.000,A,5130.8594,N,00729.2521,E,0.1,0.0,130506,0.0,W*7A
$GPRMC,134010.000,A,5130.8594,N,00729.2521,E,0.1,0.0,130506,0.0,W*72
$GPRMC,134011.000,A,5130.8595,N,00729.2521,E,0.0,0.0,130506,0.0,W*73
$GPRMC,134012.000,A,5130.8594,N,00729.2521,E,0.0,0.0,130506,0.0,W*71
$GPRMC,134013.000,A,5130.8594,N,00729.2521,E,0.1,0.0,130506,0.0,W*71
$GPRMC,134014.000,A,5130.8594,N,00729.2521,E,0.1,0.0,130506,0.0,W*76
$GPRMC,134015.000,A,5130.8594,N,00729.2521,E,0.1,0.0,130506,0.0,W*77
$GPRMC,134016.000,A,5130.8594,N,00729.2520,E,0.1,0.0,130506,0.0,W*75
$GPRMC,134017.000,A,5130.8594,N,00729.2520,E,0.0,0.0,130506,0.0,W*75
$GPRMC,134018.000,A,5130.8594,N,00729.2520,E,0.1,0.0,130506,0.0,W*7B
$GPRMC,134019.000,A,5130.8594,N,00729.2520,E,0.1,0.0,130506,0.0,W*7A
$GPRMC,134020.000,A,5130.8594,N,00729.2520,E,0.1,0.0,130506,0.0,W*70
$GPRMC,134021.000,A,5130.8594,N,00729.2520,E,0.1,0.0,130506,0.0,W*71
$GPRMC,134022.000,A,5130.8594,N,00729.2520,E,0.1,0.0,130506,0.0,W*72
$GPRMC,134023.000,A,5130.8594,N,00729.2520,E,0.0,0.0,130506,0.0,W*72
$GPRMC,134024.000,A,5130.8594,N,00729.2520,E,0.1,0.0,130506,0.0,W*74
$GPRMC,134025.000,A,5130.8594,N,00729.2520,E,0.1,0.0,130506,0.0,W*75
$GPRMC,134026.000,A,5130.8594,N,00729.2519,E,0.0,0.0,130506,0.0,W*7D
$GPRMC,134027.000,A,5130.8594,N,00729.2519,E,0.0,0.0,130506,0.0,W*7C
$GPRMC,134028.000,A,5130.8594,N,00729.2519,E,0.0,0.0,130506,0.0,W*73
$GPRMC,134029.000,A,5130.8594,N,00729.2519,E,0.0,0.0,130506,0.0,W*72
$GPRMC,134030.000,A,5130.8594,N,00729.2519,E,0.0,0.0,130506,0.0,W*7A
$GPRMC,134031.000,A,5130.8594,N,00729.2519,E,0.1,0.0,130506,0.0,W*7A
$GPRMC,134032.000,A,5130.8594,N,00729.2519,E,0.1,0.0,130506,0.0,W*79
$GPRMC,134033.000,A,5130.8593,N,00729.2519,E,0.0,0.0,130506,0.0,W*7E
$GPRMC,134034.000,A,5130.8593,N,00729.2519,E,0.0,0.0,130506,0.0,W*79
$GPRMC,134035.000,A,5130.8594,N,00729.2518,E,0.0,0.0,130506,0.0,W*7E
$GPRMC,134036.000,A,5130.8594,N,00729.2518,E,0.0,0.0,130506,0.0,W*7D
$GPRMC,134037.000,A,5130.8594,N,00729.2518,E,0.0,0.0,130506,0.0,W*7C
$GPRMC,134038.000,A,5130.8594,N,00729.2518,E,0.0,0.0,130506,0.0,W*73
$GPRMC,134039.000,A,5130.8594,N,00729.2518,E,0.1,0.0,130506,0.0,W*73
$GPRMC,134040.000,A,5130.8594,N,00729.2518,E,0.0,0.0,130506,0.0,W*7C
$GPRMC,134041.000,A,5130.8594,N,00729.2518,E,0.0,0.0,130506,0.0,W*7D
$GPRMC,134042.000,A,5130.8594,N,00729.2518,E,0.0,0.0,130506,0.0,W*7E
$GPRMC,134043.000,A,5130.8594,N,00729.2518,E,0.0,0.0,130506,0.0,W*7F
$GPRMC,134044.000,A,5130.8594,N,00729.2518,E,0.0,0.0,130506,0.0,W*78
$GPRMC,134045.000,A,5130.8594,N,00729.2518,E,0.0,0.0,130506,0.0,W*79
$GPRMC,134046.000,A,5130.8593,N,00729.2518,E,0.0,0.0,130506,0.0,W*7D
$GPRMC,134047.000,A,5130.8593,N,00729.2518,E,0.0,0.0,130506,0.0,W*7C
$GPRMC,134048.000,A,5130.8593,N,00729.2518,E,0.0,0.0,130506,0.0,W*73
$GPRMC,134049.000,A,5130.8593,N,00729.2518,E,0.0,0.0,130506,0.0,W*72
$GPRMC,134050.000,A,5130.8593,N,00729.2518,E,0.0,0.0,130506,0.0,W*7A
$GPRMC,134051.000,A,5130.8593,N,00729.2518,E,0.0,0.0,130506,0.0,W*7B
$GPRMC,134052.000,A,5130.8593,N,00729.2518,E,0.0,0.0,130506,0.0,W*78
$GPRMC,134053.000,A,5130.8593,N,00729.2518,E,0.0,0.0,130506,0.0,W*79
$GPRMC,134054.000,A,5130.8593,N,00729.2518,E,0.0,0.0,130506,0.0,W*7E
$GPRMC,134055.000,A,5130.8593,N,00729.2518,E,0.0,0.0,130506,0.0,W*7F
$GPRMC,134056.000,A,5130.8593,N,00729.2518,E,0.0,0.0,130506,0.0,W*7C
$GPRMC,134057.000,A,5130.8593,N,00729.2518,E,0.0,0.0,130506,0.0,W*7D
$GPRMC,134058.000,A,5130.8593,N,00729.2517,E,0.0,0.0,130506,0.0,W*7D
$GPRMC,134059.000,A,5130.8593,N,00729.2518,E,0.0,0.0,130506,0.0,W*73
$GPRMC,134100.000,A,5130.8592,N,00729.2517,E,0.0,0.0,130506,0.0,W*70
$GPRMC,134101.000,A,5130.8592,N,00729.2517,E,0.0,0.0,130506,0.0,W*71
$GPRMC,134102.000,A,5130.8592,N,00729.2517,E,0.0,0.0,130506,0.0,W*72
$GPRMC,134103.000,A,5130.8592,N,00729.2517,E,0.0,0.0,130506,0.0,W*73
$GPRMC,134104.000,A,5130.8592,N,00729.2517,E,0.0,0.0,130506,0.0,W*74
$GPRMC,134105.000,A,5130.8592,N,00729.2517,E,0.0,0.0,130506,0.0,W*75
$GPRMC,134106.000,A,5130.8592,N,00729.2517,E,0.0,0.0,130506,0.0,W*76
$GPRMC,134107.000,A,5130.8592,N,00729.2517,E,0.1,0.0,130506,0.0,W*76
$GPRMC,134108.000,A,5130.8592,N,00729.2517,E,0.0,0.0,130506,0.0,W*78
$GPRMC,134109.000,A,5130.8592,N,00729.2517,E,0.0,0.0,130506,0.0,W*79
$GPRMC,134110.000,A,5130.8592,N,00729.2517,E,0.1,0.0,130506,0.0,W*70
$GPRMC,134111.000,A,5130.8592,N,00729.2517,E,0.0,0.0,130506,0.0,W*70
$GPRMC,134112.000,A,5130.8592,N,00729.2517,E,0.0,0.0,130506,0.0,W*73
$GPRMC,134113.000,A,5130.8592,N,00729.2517,E,0.1,0.0,130506,0.0,W*73
$GPRMC,134114.000,A,5130.8592,N,00729.2517,E,0.0,0.0,130506,0.0,W*75
$GPRMC,134115.000,A,5130.8592,N,00729.2517,E,0.1,0.0,130506,0.0,W*75
$GPRMC,134116.000,A,5130.8592,N,00729.2517,E,0.0,0.0,130506,0.0,W*77
$GPRMC,134117.000,A,5130.8592,N,00729.2516,E,0.0,0.0,130506,0.0,W*77
$GPRMC,134118.000,A,5130.8592,N,00729.2516,E,0.0,0.0,130506,0.0,W*78
$GPRMC,134119.000,A,5130.8591,N,00729.2516,E,0.0,0.0,130506,0.0,W*7A
$GPRMC,134120.000,A,5130.8591,N,00729.2516,E,0.0,0.0,130506,0.0,W*70
$GPRMC,134121.000,A,5130.8591,N,00729.2516,E,0.1,0.0,130506,0.0,W*70
$GPRMC,134122.000,A,5130.8591,N,00729.2516,E,0.0,0.0,130506,0.0,W*72
$GPRMC,134123.000,A,5130.8591,N,00729.2516,E,0.1,0.0,130506,0.0,W*72
$GPRMC,134124.000,A,5130.8591,N,00729.2516,E,0.0,0.0,130506,0.0,W*74
$GPRMC,134125.000,A,5130.8591,N,00729.2516,E,0.0,0.0,130506,0.0,W*75
$GPRMC,134126.000,A,5130.8591,N,00729.2516,E,0.0,0.0,130506,0.0,W*76
$GPRMC,134127.000,A,5130.8591,N,00729.2516,E,0.1,0.0,130506,0.0,W*76
$GPRMC,134128.000,A,5130.8591,N,00729.2516,E,0.0,0.0,130506,0.0,W*78
$GPRMC,134129.000,A,5130.8591,N,00729.2516,E,0.1,0.0,130506,0.0,W*78
$GPRMC,134130.000,A,5130.8591,N,00729.2516,E,0.0,0.0,130506,0.0,W*71
$GPRMC,134131.000,A,5130.8591,N,00729.2516,E,0.0,0.0,130506,0.0,W*70
$GPRMC,134132.000,A,5130.8591,N,00729.2516,E,0.0,0.0,130506,0.0,W*73
$GPRMC,134133.000,A,5130.8591,N,00729.2516,E,0.0,0.0,130506,0.0,W*72
$GPRMC,134134.000,A,5130.8591,N,00729.2516,E,0.0,0.0,130506,0.0,W*75
$GPRMC,134135.000,A,5130.8590,N,00729.2516,E,0.0,0.0,130506,0.0,W*75
$GPRMC,134136.000,A,5130.8590,N,00729.2516,E,0.0,0.0,130506,0.0,W*76
$GPRMC,134137.000,A,5130.8590,N,00729.2516,E,0.0,0.0,130506,0.0,W*77
$GPRMC,134138.000,A,5130.8590,N,00729.2517,E,0.0,0.0,130506,0.0,W*79
$GPRMC,134139.000,A,5130.8590,N,00729.2517,E,0.0,0.0,130506,0.0,W*78
$GPRMC,134140.000,A,5130.8590,N,00729.2517,E,0.0,0.0,130506,0.0,W*76
$GPRMC,134141.000,A,5130.8590,N,00729.2517,E,0.0,0.0,130506,0.0,W*77
$GPRMC,134142.000,A,5130.8590,N,00729.2517,E,0.0,0.0,130506,0.0,W*74
$GPRMC,134143.000,A,5130.8590,N,00729.2517,E,0.0,0.0,130506,0.0,W*75
$GPRMC,134144.000,A,5130.8590,N,00729.2517,E,0.0,0.0,130506,0.0,W*72
$GPRMC,134145.000,A,5130.8589,N,00729.2517,E,0.0,0.0,130506,0.0,W*7B
$GPRMC,134146.000,A,5130.8589,N,00729.2517,E,0.0,0.0,130506,0.0,W*78
$GPRMC,134147.000,A,5130.8589,N,00729.2517,E,0.0,0.0,130506,0.0,W*79
$GPRMC,134148.000,A,5130.8589,N,00729.2517,E,0.0,0.0,130506,0.0,W*76
$GPRMC,134149.000,A,5130.8589,N,00729.2517,E,0.0,0.0,130506,0.0,W*77
$GPRMC,134150.000,A,5130.8589,N,00729.2517,E,0.0,0.0,130506,0.0,W*7F
$GPRMC,134151.000,A,5130.8589,N,00729.2517,E,0.0,0.0,130506,0.0,W*7E
$GPRMC,134152.000,A,5130.8589,N,00729.2517,E,0.0,0.0,130506,0.0,W*7D
$GPRMC,134153.000,A,5130.8589,N,00729.2517,E,0.0,0.0,130506,0.0,W*7C
$GPRMC,134154.000,A,5130.8589,N,00729.2517,E,0.0,0.0,130506,0.0,W*7B
$GPRMC,134155.000,A,5130.8589,N,00729.2517,E,0.0,0.0,130506,0.0,W*7A
$GPRMC,134156.000,A,5130.8589,N,00729.2516,E,0.0,0.0,130506,0.0,W*78
$GPRMC,134157.000,A,5130.8589,N,00729.2516,E,0.0,0.0,130506,0.0,W*79
$GPRMC,134158.000,A,5130.8589,N,00729.2516,E,0.0,0.0,130506,0.0,W*76
$GPRMC,134159.000,A,5130.8588,N,00729.2516,E,0.0,0.0,130506,0.0,W*76
$GPRMC,134200.000,A,5130.8588,N,00729.2516,E,0.0,0.0,130506,0.0,W*79
$GPRMC,134201.000,A,5130.8588,N,00729.2516,E,0.1,0.0,130506,0.0,W*79
$GPRMC,134202.000,A,5130.8588,N,00729.2516,E,0.0,0.0,130506,0.0,W*7B
$GPRMC,134203.000,A,5130.8588,N,00729.2516,E,0.0,0.0,130506,0.0,W*7A
$GPRMC,134204.000,A,5130.8588,N,00729.2516,E,0.0,0.0,130506,0.0,W*7D
$GPRMC,134205.000,A,5130.8588,N,00729.2516,E,0.0,0.0,130506,0.0,W*7C
$GPRMC,134206.000,A,5130.8588,N,00729.2516,E,0.0,0.0,130506,0.0,W*7F
$GPRMC,134207.000,A,5130.8588,N,00729.2516,E,0.0,0.0,130506,0.0,W*7E
$GPRMC,134208.000,A,5130.8588,N,00729.2516,E,0.0,0.0,130506,0.0,W*71
$GPRMC,134209.000,A,5130.8588,N,00729.2516,E,0.0,0.0,130506,0.0,W*70
$GPRMC,134210.000,A,5130.8588,N,00729.2516,E,0.0,0.0,130506,0.0,W*78
$GPRMC,134211.000,A,5130.8588,N,00729.2516,E,0.0,0.0,130506,0.0,W*79
$GPRMC,134212.000,A,5130.8588,N,00729.2516,E,0.0,0.0,130506,0.0,W*7A
$GPRMC,134213.000,A,5130.8588,N,00729.2516,E,0.0,0.0,130506,0.0,W*7B
$GPRMC,134214.000,A,5130.8588,N,00729.2516,E,0.0,0.0,130506,0.0,W*7C
$GPRMC,134215.000,A,5130.8588,N,00729.2516,E,0.0,0.0,130506,0.0,W*7D
$GPRMC,134216.000,A,5130.8588,N,00729.2516,E,0.0,0.0,130506,0.0,W*7E
$GPRMC,134217.000,A,5130.8588,N,00729.2516,E,0.0,0.0,130506,0.0,W*7F
$GPRMC,134218.000,A,5130.8588,N,00729.2516,E,0.0,0.0,130506,0.0,W*70
$GPRMC,134219.000,A,5130.8588,N,00729.2515,E,0.0,0.0,130506,0.0,W*72
$GPRMC,134220.000,A,5130.8588,N,00729.2515,E,0.0,0.0,130506,0.0,W*78
$GPRMC,134221.000,A,5130.8588,N,00729.2515,E,0.0,0.0,130506,0.0,W*79
$GPRMC,134222.000,A,5130.8588,N,00729.2515,E,0.0,0.0,130506,0.0,W*7A
$GPRMC,134223.000,A,5130.8588,N,00729.2515,E,0.0,0.0,130506,0.0,W*7B
$GPRMC,134224.000,A,5130.8588,N,00729.2515,E,0.0,0.0,130506,0.0,W*7C
$GPRMC,134225.000,A,5130.8588,N,00729.2515,E,0.0,0.0,130506,0.0,W*7D
$GPRMC,134226.000,A,5130.8588,N,00729.2515,E,0.0,0.0,130506,0.0,W*7E
$GPRMC,134227.000,A,5130.8588,N,00729.2515,E,0.0,0.0,130506,0.0,W*7F
$GPRMC,134228.000,A,5130.8588,N,00729.2515,E,0.0,0.0,130506,0.0,W*70
$GPRMC,134229.000,A,5130.8588,N,00729.2515,E,0.0,0.0,130506,0.0,W*71
$GPRMC,134230.000,A,5130.8588,N,00729.2515,E,0.0,0.0,130506,0.0,W*79
$GPRMC,134231.000,A,5130.8588,N,00729.2515,E,0.0,0.0,130506,0.0,W*78
$GPRMC,134232.000,A,5130.8588,N,00729.2515,E,0.0,0.0,130506,0.0,W*7B
$GPRMC,134233.000,A,5130.8588,N,00729.2515,E,0.0,0.0,130506,0.0,W*7A
$GPRMC,134234.000,A,5130.8588,N,00729.2515,E,0.0,0.0,130506,0.0,W*7D
$GPRMC,134235.000,A,5130.8588,N,00729.2515,E,0.0,0.0,130506,0.0,W*7C
$GPRMC,134236.000,A,5130.8588,N,00729.2515,E,0.0,0.0,130506,0.0,W*7F
$GPRMC,134237.000,A,5130.8588,N,00729.2515,E,0.0,0.0,130506,0.0,W*7E
$GPRMC,134238.000,A,5130.8588,N,00729.2515,E,0.0,0.0,130506,0.0,W*71
$GPRMC,134239.000,A,5130.8589,N,00729.2515,E,0.0,0.0,130506,0.0,W*71
$GPRMC,134240.000,A,5130.8589,N,00729.2515,E,0.0,0.0,130506,0.0,W*7F
$GPRMC,134241.000,A,5130.8589,N,00729.2515,E,0.0,0.0,130506,0.0,W*7E
$GPRMC,134242.000,A,5130.8589,N,00729.2515,E,0.0,0.0,130506,0.0,W*7D
$GPRMC,134243.000,A,5130.8589,N,00729.2515,E,0.0,0.0,130506,0.0,W*7C
$GPRMC,134244.000,A,5130.8589,N,00729.2515,E,0.0,0.0,130506,0.0,W*7B
$GPRMC,134245.000,A,5130.8589,N,00729.2515,E,0.0,0.0,130506,0.0,W*7A
$GPRMC,134246.000,A,5130.8589,N,00729.2515,E,0.0,0.0,130506,0.0,W*79
$GPRMC,134247.000,A,5130.8589,N,00729.2515,E,0.0,0.0,130506,0.0,W*78
$GPRMC,134248.000,A,5130.8589,N,00729.2515,E,0.0,0.0,130506,0.0,W*77
$GPRMC,134249.000,A,5130.8589,N,00729.2515,E,0.0,0.0,130506,0.0,W*76
$GPRMC,134250.000,A,5130.8589,N,00729.2515,E,0.0,0.0,130506,0.0,W*7E
$GPRMC,134251.000,A,5130.8589,N,00729.2515,E,0.0,0.0,130506,0.0,W*7F
$GPRMC,134252.000,A,5130.8589,N,00729.2515,E,0.0,0.0,130506,0.0,W*7C
$GPRMC,134253.000,A,5130.8589,N,00729.2515,E,0.0,0.0,130506,0.0,W*7D
$GPRMC,134254.000,A,5130.8589,N,00729.2515,E,0.0,0.0,130506,0.0,W*7A
$GPRMC,134255.000,A,5130.8589,N,00729.2515,E,0.0,0.0,130506,0.0,W*7B
$GPRMC,134256.000,A,5130.8589,N,00729.2515,E,0.0,0.0,130506,0.0,W*78
$GPRMC,134257.000,A,5130.8589,N,00729.2515,E,0.0,0.0,130506,0.0,W*79
$GPRMC,134258.000,A,5130.8589,N,00729.2515,E,0.0,0.0,130506,0.0,W*76
$GPRMC,134259.000,A,5130.8589,N,00729.2515,E,0.0,0.0,130506,0.0,W*77
$GPRMC,134300.000,A,5130.8589,N,00729.2515,E,0.0,0.0,130506,0.0,W*7A
$GPRMC,134301.000,A,5130.8589,N,00729.2515,E,0.0,0.0,130506,0.0,W*7B
$GPRMC,134302.000,A,5130.8589,N,00729.2515,E,0.0,0.0,130506,0.0,W*78
$GPRMC,134303.000,A,5130.8589,N,00729.2515,E,0.0,0.0,130506,0.0,W*79
$GPRMC,134304.000,A,5130.8589,N,00729.2515,E,0.0,0.0,130506,0.0,W*7E
$GPRMC,134305.000,A,5130.8589,N,00729.2515,E,0.0,0.0,130506,0.0,W*7F
$GPRMC,134306.000,A,5130.8589,N,00729.2515,E,0.0,0.0,130506,0.0,W*7C
$GPRMC,134307.000,A,5130.8589,N,00729.2515,E,0.0,0.0,130506,0.0,W*7D
$GPRMC,134308.000,A,5130.8589,N,00729.2515,E,0.0,0.0,130506,0.0,W*72
$GPRMC,134309.000,A,5130.8589,N,00729.2515,E,0.0,0.0,130506,0.0,W*73
$GPRMC,134310.000,A,5130.8589,N,00729.2515,E,0.0,0.0,130506,0.0,W*7B
$GPRMC,134311.000,A,5130.8589,N,00729.2515,E,0.0,0.0,130506,0.0,W*7A
$GPRMC,134312.000,A,5130.8589,N,00729.2515,E,0.0,0.0,130506,0.0,W*79
$GPRMC,134313.000,A,5130.8589,N,00729.2515,E,0.0,0.0,130506,0.0,W*78
$GPRMC,134314.000,A,5130.8589,N,00729.2515,E,0.0,0.0,130506,0.0,W*7F
$GPRMC,134315.000,A,5130.8589,N,00729.2515,E,0.0,0.0,130506,0.0,W*7E
$GPRMC,134316.000,A,5130.8589,N,00729.2515,E,0.0,0.0,130506,0.0,W*7D
$GPRMC,134317.000,A,5130.8589,N,00729.2515,E,0.0,0.0,130506,0.0,W*7C
$GPRMC,134318.000,A,5130.8589,N,00729.2515,E,0.0,0.0,130506,0.0,W*73
$GPRMC,134319.000,A,5130.8589,N,00729.2515,E,0.0,0.0,130506,0.0,W*72
$GPRMC,134320.000,A,5130.8589,N,00729.2515,E,0.0,0.0,130506,0.0,W*78
$GPRMC,134321.000,A,5130.8589,N,00729.2515,E,0.0,0.0,130506,0.0,W*79
$GPRMC,134322.000,A,5130.8589,N,00729.2515,E,0.0,0.0,130506,0.0,W*7A
$GPRMC,134323.000,A,5130.8589,N,00729.2515,E,0.0,0.0,130506,0.0,W*7B
$GPRMC,134324.000,A,5130.8590,N,00729.2515,E,0.0,0.0,130506,0.0,W*74
$GPRMC,134325.000,A,5130.8590,N,00729.2515,E,0.0,0.0,130506,0.0,W*75
$GPRMC,134326.000,A,5130.8590,N,00729.2515,E,0.0,0.0,130506,0.0,W*76
$GPRMC,134327.000,A,5130.8590,N,00729.2515,E,0.0,0.0,130506,0.0,W*77
$GPRMC,134328.000,A,5130.8590,N,00729.2515,E,0.0,0.0,130506,0.0,W*78
$GPRMC,134329.000,A,5130.8590,N,00729.2515,E,0.0,0.0,130506,0.0,W*79
$GPRMC,134330.000,A,5130.8590,N,00729.2515,E,0.0,0.0,130506,0.0,W*71
$GPRMC,134331.000,A,5130.8590,N,00729.2515,E,0.0,0.0,130506,0.0,W*70
$GPRMC,134332.000,A,5130.8590,N,00729.2515,E,0.0,0.0,130506,0.0,W*73
$GPRMC,134333.000,A,5130.8590,N,00729.2515,E,0.0,0.0,130506,0.0,W*72
$GPRMC,134334.000,A,5130.8591,N,00729.2515,E,0.0,0.0,130506,0.0,W*74
$GPRMC,134335.000,A,5130.8591,N,00729.2515,E,0.0,0.0,130506,0.0,W*75
$GPRMC,134336.000,A,5130.8591,N,00729.2515,E,0.0,0.0,130506,0.0,W*76
$GPRMC,134337.000,A,5130.8591,N,00729.2515,E,0.0,0.0,130506,0.0,W*77
$GPRMC,134338.000,A,5130.8591,N,00729.2515,E,0.0,0.0,130506,0.0,W*78
$GPRMC,134339.000,A,5130.8591,N,00729.2515,E,0.0,0.0,130506,0.0,W*79
$GPRMC,134340.000,A,5130.8591,N,00729.2515,E,0.0,0.0,130506,0.0,W*77
$GPRMC,134341.000,A,5130.8591,N,00729.2515,E,0.0,0.0,130506,0.0,W*76
$GPRMC,134342.000,A,5130.8591,N,00729.2515,E,0.0,0.0,130506,0.0,W*75
$GPRMC,134343.000,A,5130.8592,N,00729.2518,E,0.7,83.1,130506,0.0,W*47
$GPRMC,134344.000,A,5130.8592,N,00729.2521,E,1.3,86.5,130506,0.0,W*4E
$GPRMC,134345.000,A,5130.8591,N,00729.2521,E,1.3,87.0,130506,0.0,W*48
$GPRMC,134346.000,A,5130.8592,N,00729.2520,E,1.2,82.9,130506,0.0,W*44
$GPRMC,134347.000,A,5130.8592,N,00729.2519,E,1.1,82.8,130506,0.0,W*4D
$GPRMC,134348.000,A,5130.8592,N,00729.2520,E,1.1,84.7,130506,0.0,W*41
$GPRMC,134349.000,A,5130.8592,N,00729.2522,E,1.7,84.9,130506,0.0,W*4A
$GPRMC,134350.000,A,5130.8594,N,00729.2525,E,2.5,66.5,130506,0.0,W*42
$GPRMC,134351.000,A,5130.8596,N,00729.2524,E,0.9,44.2,130506,0.0,W*49
$GPRMC,134352.000,A,5130.8593,N,00729.2520,E,0.5,232.3,130506,0.0,W*75
$GPRMC,134353.000,A,5130.8581,N,00729.2509,E,3.6,209.6,130506,0.0,W*71
$GPRMC,134354.000,A,5130.8565,N,00729.2506,E,4.9,193.0,130506,0.0,W*7D
$GPRMC,134355.000,A,5130.8546,N,00729.2515,E,6.3,172.2,130506,0.0,W*7A
$GPRMC,134356.000,A,5130.8527,N,00729.2536,E,7.4,153.1,130506,0.0,W*79
$GPRMC,134357.000,A,5130.8514,N,00729.2565,E,7.6,134.1,130506,0.0,W*7D
$GPRMC,134358.000,A,5130.8510,N,00729.2594,E,6.8,113.9,130506,0.0,W*7A
$GPRMC,134359.000,A,5130.8510,N,00729.2614,E,5.1,102.5,130506,0.0,W*76
$GPRMC,134400.000,A,5130.8509,N,00729.2623,E,3.1,98.5,130506,0.0,W*45
$GPRMC,134401.000,A,5130.8508,N,00729.2631,E,2.3,101.4,130506,0.0,W*75
$GPRMC,134402.000,A,5130.8505,N,00729.2645,E,2.9,108.5,130506,0.0,W*7A
$GPRMC,134403.000,A,5130.8487,N,00729.2670,E,6.4,133.5,130506,0.0,W*77
$GPRMC,134404.000,A,5130.8451,N,00729.2681,E,10.6,162.4,130506,0.0,W*45
$GPRMC,134405.000,A,5130.8403,N,00729.2688,E,14.9,171.7,130506,0.0,W*40
$GPRMC,134406.000,A,5130.8360,N,00729.2695,E,15.3,173.7,130506,0.0,W*44
$GPRMC,134407.000,A,5130.8309,N,00729.2704,E,17.3,173.7,130506,0.0,W*41
$GPRMC,134408.000,A,5130.8264,N,00729.2710,E,16.8,174.5,130506,0.0,W*4E
$GPRMC,134409.000,A,5130.8221,N,00729.2714,E,16.0,176.3,130506,0.0,W*46
$GPRMC,134410.000,A,5130.8178,N,00729.2716,E,15.6,177.7,130506,0.0,W*43
$GPRMC,134411.000,A,5130.8136,N,00729.2721,E,15.4,176.3,130506,0.0,W*4B
$GPRMC,134412.000,A,5130.8097,N,00729.2728,E,14.7,174.8,130506,0.0,W*40
$GPRMC,134413.000,A,5130.8059,N,00729.2736,E,14.0,173.4,130506,0.0,W*40
$GPRMC,134414.000,A,5130.8021,N,00729.2747,E,14.1,171.2,130506,0.0,W*4B
$GPRMC,134415.000,A,5130.7981,N,00729.2756,E,14.4,171.3,130506,0.0,W*42
$GPRMC,134416.000,A,5130.7938,N,00729.2768,E,15.4,170.9,130506,0.0,W*44
$GPRMC,134417.000,A,5130.7892,N,00729.2780,E,16.1,170.9,130506,0.0,W*44
$GPRMC,134418.000,A,5130.7840,N,00729.2793,E,18.0,170.8,130506,0.0,W*48
$GPRMC,134419.000,A,5130.7782,N,00729.2808,E,20.2,170.8,130506,0.0,W*4C
$GPRMC,134420.000,A,5130.7724,N,00729.2824,E,20.9,170.6,130506,0.0,W*41
$GPRMC,134421.000,A,5130.7670,N,00729.2838,E,20.0,170.7,130506,0.0,W*45
$GPRMC,134422.000,A,5130.7615,N,00729.2850,E,20.0,171.7,130506,0.0,W*4A
$GPRMC,134423.000,A,5130.7560,N,00729.2864,E,20.2,171.4,130506,0.0,W*4C
$GPRMC,134424.000,A,5130.7503,N,00729.2876,E,20.4,171.8,130506,0.0,W*47
$GPRMC,134425.000,A,5130.7446,N,00729.2890,E,20.7,171.5,130506,0.0,W*40
$GPRMC,134426.000,A,5130.7391,N,00729.2905,E,20.4,170.8,130506,0.0,W*4C
$GPRMC,134427.000,A,5130.7335,N,00729.2918,E,20.3,171.5,130506,0.0,W*44
$GPRMC,134428.000,A,5130.7284,N,00729.2929,E,19.1,171.8,130506,0.0,W*47
$GPRMC,134429.000,A,5130.7241,N,00729.2945,E,17.0,169.2,130506,0.0,W*49
$GPRMC,134430.000,A,5130.7205,N,00729.2942,E,14.1,177.1,130506,0.0,W*48
$GPRMC,134431.000,A,5130.7175,N,00729.2920,E,12.3,194.2,130506,0.0,W*43
$GPRMC,134432.000,A,5130.7151,N,00729.2886,E,11.5,212.0,130506,0.0,W*41
$GPRMC,134433.000,A,5130.7127,N,00729.2833,E,13.3,227.1,130506,0.0,W*4C
$GPRMC,134434.000,A,5130.7111,N,00729.2769,E,14.7,241.5,130506,0.0,W*49
$GPRMC,134435.000,A,5130.7106,N,00729.2696,E,15.6,256.5,130506,0.0,W*49
$GPRMC,134436.000,A,5130.7103,N,00729.2620,E,16.5,263.0,130506,0.0,W*41
$GPRMC,134437.000,A,5130.7099,N,00729.2541,E,17.2,264.5,130506,0.0,W*42
$GPRMC,134438.000,A,5130.7094,N,00729.2465,E,17.3,264.6,130506,0.0,W*45
$GPRMC,134439.000,A,5130.7089,N,00729.2397,E,16.0,263.6,130506,0.0,W*47
$GPRMC,134440.000,A,5130.7083,N,00729.2344,E,13.4,260.9,130506,0.0,W*40
$GPRMC,134441.000,A,5130.7074,N,00729.2309,E,10.0,252.7,130506,0.0,W*48
$GPRMC,134442.000,A,5130.7053,N,00729.2289,E,8.4,225.9,130506,0.0,W*74
$GPRMC,134443.000,A,5130.7028,N,00729.2287,E,8.3,196.5,130506,0.0,W*77
$GPRMC,134444.000,A,5130.7005,N,00729.2296,E,8.2,175.4,130506,0.0,W*72
$GPRMC,134445.000,A,5130.6978,N,00729.2316,E,9.8,161.1,130506,0.0,W*73
$GPRMC,134446.000,A,5130.6953,N,00729.2325,E,9.2,165.5,130506,0.0,W*73
$GPRMC,134447.000,A,5130.6932,N,00729.2331,E,8.1,167.7,130506,0.0,W*72
$GPRMC,134448.000,A,5130.6912,N,00729.2338,E,7.7,168.2,130506,0.0,W*75
$GPRMC,134449.000,A,5130.6883,N,00729.2349,E,9.7,166.8,130506,0.0,W*71
$GPRMC,134450.000,A,5130.6848,N,00729.2360,E,11.7,168.3,130506,0.0,W*49
$GPRMC,134451.000,A,5130.6807,N,00729.2375,E,13.9,167.6,130506,0.0,W*41
$GPRMC,134452.000,A,5130.6759,N,00729.2393,E,16.6,167.2,130506,0.0,W*40
$GPRMC,134453.000,A,5130.6705,N,00729.2409,E,18.6,168.7,130506,0.0,W*48
$GPRMC,134454.000,A,5130.6654,N,00729.2429,E,18.7,167.2,130506,0.0,W*43
$GPRMC,134455.000,A,5130.6604,N,00729.2446,E,18.6,167.6,130506,0.0,W*4B
$GPRMC,134456.000,A,5130.6550,N,00729.2467,E,19.5,167.0,130506,0.0,W*4D
$GPRMC,134457.000,A,5130.6493,N,00729.2493,E,20.6,164.9,130506,0.0,W*4A
$GPRMC,134458.000,A,5130.6436,N,00729.2516,E,21.0,165.5,130506,0.0,W*4C
$GPRMC,134459.000,A,5130.6382,N,00729.2542,E,20.5,164.3,130506,0.0,W*47
